[
  {
    "id": "1",
    "name": "Kismayo Kitchen",
    "cuisine": "Somali Cuisine",
    "address": "505 Riverside Ave, Burlington, VT 05401",
    "coordinates": {
      "ns": 44.4890,
      "we": -73.2019
    },
    "phoneNumber": "+1 (802) 448-3032",
    "hours": "12â€“8PM",
    "about": "Down-to-earth restaurant serving eclectic and delicious Somali dishes & drinks."
  },
  {
    "id": "1",
    "name": "Restaurant Name",
    "cuisine": "Cuisine",
    "address": "Address",
    "coordinates": {
      "ns": 44.4790,
      "we": -73.2019
    },
    "phoneNumber": "+ 802 555 5555",
    "hours": "Hours",
    "about": "description"
  },
  {
    "id": "1",
    "name": "Restaurant Name",
    "cuisine": "Cuisine",
    "address": "Address",
    "coordinates": {
      "ns": 44.4785,
      "we": -73.2019
    },
    "phoneNumber": "+ 802 555 5555",
    "hours": "Hours",
    "about": "description"
  },
  {
    "id": "1",
    "name": "Restaurant Name",
    "cuisine": "Cuisine",
    "address": "Address",
    "coordinates": {
      "ns": 44.4780,
      "we": -73.2019
    },
    "phoneNumber": "+ 802 555 5555",
    "hours": "Hours",
    "about": "description"
  },
  {
    "id": "1",
    "name": "Restaurant Name",
    "cuisine": "Cuisine",
    "address": "Address",
    "coordinates": {
      "ns": 44.4778,
      "we": -73.2019
    },
    "phoneNumber": "+ 802 555 5555",
    "hours": "Hours",
    "about": "description"
  }
]